[{"ID":"4389","Name":"The Black Lillies","Image":"","Date":"11/18/2012","Time":"7:30 PM","Venue":"Dosey Doe","Neighborhood":"","City":"Spring","State":"Texas","Latitude":"30.13792","Longitude":"-95.44610"},{"ID":"543","Name":"The Black Swans","Image":"","Date":"9/11/2012","Time":"","Venue":"Empty Bottle","Neighborhood":"","City":"Chicago","State":"Illinois","Latitude":"41.9003921","Longitude":"-87.6867877"},{"ID":"3105","Name":"Mary Black","Image":"","Date":"11/15/2012","Time":"8:00 PM","Venue":"City Winery","Neighborhood":"West Loop","City":"Chicago","State":"Illinois","Latitude":"41.8844754","Longitude":"-87.6569735"},{"ID":"22","Name":"Black Joe Lewis and the Honeybears","Image":"","Date":"12/30/2012","Time":"","Venue":"Double Door","Neighborhood":"","City":"Chicago","State":"Illinois","Latitude":"41.9100002","Longitude":"-87.6770098"},{"ID":"5217","Name":"Black Irish, Rhythm Dragons","Image":"","Date":"11/25/2012","Time":"9:00 PM","Venue":"Double-Wide","Neighborhood":"","City":"Dallas","State":"Texas","Latitude":"32.78515","Longitude":"-96.77407"},{"ID":"3262","Name":"Cora Vette's Black Bo...","Image":"","Date":"11/15/2012","Time":"8:30 PM","Venue":"Bar Standard","Neighborhood":"","City":"Denver","State":"Colorado","Latitude":"39.73275","Longitude":"-104.98757"},{"ID":"2233","Name":"Betse Ellis, The Black Lillies","Image":"","Date":"11/9/2012","Time":"8:00 PM","Venue":"Swallow Hill","Neighborhood":"","City":"Denver","State":"Colorado","Latitude":"39.66783","Longitude":"-104.98674"},{"ID":"2919","Name":"Black Moth Super Rainbow","Image":"","Date":"12/5/2012","Time":"9:00 PM","Venue":"Bowery Ballroom","Neighborhood":"","City":"New York","State":"New York","Latitude":"40.72040","Longitude":"-73.99373"},{"ID":"5584","Name":"Black Dog Jazz Jam","Image":"","Date":"12/2/2012","Time":"4:30 AM","Venue":"Scat Jazz Lounge","Neighborhood":"","City":"Fort Worth","State":"Texas","Latitude":"32.75432","Longitude":"-97.33124"},{"ID":"5212","Name":"Black Dog Jazz Jam","Image":"","Date":"11/25/2012","Time":"4:30 AM","Venue":"Scat Jazz Lounge","Neighborhood":"","City":"Fort Worth","State":"Texas","Latitude":"32.75432","Longitude":"-97.33124"},{"ID":"4848","Name":"Black Dog Jazz Jam","Image":"","Date":"11/18/2012","Time":"4:30 AM","Venue":"Scat Jazz Lounge","Neighborhood":"","City":"Fort Worth","State":"Texas","Latitude":"32.75432","Longitude":"-97.33124"},{"ID":"2441","Name":"Eyes & Lips, And the Black Feathers, Black Pistol Fire, Eyes Lips Eyes","Image":"","Date":"11/15/2012","Time":"9:00 PM","Venue":"Larimer Lounge","Neighborhood":"","City":"Denver","State":"Colorado","Latitude":"39.75984","Longitude":"-104.98389"},{"ID":"3417","Name":"Drainbabies, My Black Cloud, The Hacks","Image":"","Date":"11/21/2012","Time":"9:00 PM","Venue":"Larimer Lounge","Neighborhood":"","City":"Denver","State":"Colorado","Latitude":"39.75984","Longitude":"-104.98389"},{"ID":"4318","Name":"Black Queen Speaks, Great White","Image":"","Date":"11/16/2012","Time":"8:00 PM","Venue":"House of Blues","Neighborhood":"","City":"Houston","State":"Texas","Latitude":"29.75385","Longitude":"-95.36370"},{"ID":"4259","Name":"Jon Black, Magic Milk, The Escatones","Image":"","Date":"11/13/2012","Time":"","Venue":"Super Happy","Neighborhood":"","City":"Houston","State":"Texas","Latitude":"29.74111","Longitude":"-95.34264"},{"ID":"2974","Name":"State Radio, Black Pistol Fire","Image":"","Date":"12/8/2012","Time":"7:00 PM","Venue":"Webster Hall","Neighborhood":"","City":"New York","State":"New York","Latitude":"40.73191","Longitude":"-73.98964"},{"ID":"5884","Name":"Pinkish Black, Vorvon, Wild//Tribe","Image":"","Date":"12/8/2012","Time":"9:00 PM","Venue":"Lola's Saloon","Neighborhood":"","City":"Fort Worth","State":"Texas","Latitude":"32.75219","Longitude":"-97.35542"},{"ID":"2922","Name":"Bear in Heaven, Small Black, ERAAS","Image":"","Date":"12/5/2012","Time":"9:00 PM","Venue":"Music Hall of Will...","Neighborhood":"","City":"Brooklyn","State":"New York","Latitude":"40.71922","Longitude":"-73.96173"},{"ID":"823","Name":"Roxauf, Snakebyte, Back 2 Black","Image":"","Date":"8/25/2012","Time":"","Venue":"710 Beach Club","Neighborhood":"","City":"San Diego","State":"California","Latitude":"32.7964978","Longitude":"-117.2564432"},{"ID":"6022","Name":"Party, Jesse Dayton, Black Joe Lewis & the Honeybears","Image":"","Date":"12/31/2012","Time":"9:00 PM","Venue":"Emo's East","Neighborhood":"","City":"","State":"","Latitude":"","Longitude":""}]